[{"title":"SxSW","description":"An incubator of cutting-edge technologies and digital creativity.","link":"http://sxsw.com/","icon":"buildright","startDate":1426204800000,"startDateText":"3/13/2015","endDate":1426550400000,"endDateText":"3/17/2015","city":"Austin","state":"TX","country":"United States","coordinates":[-97.7430608,30.267153],"speakers":["@cromwellryan","@robtarr"],"attendees":[]},{"title":"Converge SE ","description":"Converge SE is the conference for those who want to build a beautiful web.","link":"http://convergese.com/","icon":"buildright","startDate":1429056000000,"startDateText":"4/15/2015","endDate":1429315200000,"endDateText":"4/18/2015","city":"Columbia","state":"SC","country":"United States","coordinates":[-81.0348144,34.0007104],"speakers":["@a_simpson","@dflynn15"],"attendees":[]},{"title":"Generate Conf","description":"Generate Conf is the perfect opportunity to learn from the best in web design, be inspired and meet great people.","link":"http://www.generateconf.com/new-york-2015","icon":"speaking","startDate":1429228800000,"startDateText":"4/17/2015","endDate":1429228800000,"endDateText":"4/17/2015","city":"New York","state":"NY","country":"United States","coordinates":[-74.0059413,40.7127837],"speakers":["@katiekovalcin"],"attendees":[]},{"title":"Rails Conf","description":"The flagship event of the Ruby on Rails team members and community.","link":"http://railsconf.com/","icon":"attending","startDate":1429574400000,"startDateText":"4/21/2015","endDate":1429747200000,"endDateText":"4/23/2015","city":"Atlanta ","state":"GA","country":"United States","coordinates":[-84.38932319999999,33.7607065],"speakers":[],"attendees":["@simpsonpatrick","@myockey","@shortdiv","@cromwellryan"]},{"title":"Greenville Grok","description":"","link":"http://theironyard.com/events/grok/","icon":"speaking","startDate":1430265600000,"startDateText":"4/29/2015","endDate":1430352000000,"endDateText":"4/30/2015","city":"Greenville","state":"SC","country":"","coordinates":[-82.3940104,34.85261759999999],"speakers":["@robertharr"],"attendees":["@a_simpson"]},{"title":"HOW Design","description":"Connect and share ideas over the course of five unforgettable days. ","link":"http://www.howdesignlive.com/ehome/index.php?eventid=90580&","icon":"speaking","startDate":1430697600000,"startDateText":"5/4/2015","endDate":1431043200000,"endDateText":"5/8/2015","city":"Chicago","state":"IL","country":"United States","coordinates":[-87.6297982,41.8781136],"speakers":["@robertharr"],"attendees":[]},{"title":"Frontend Design Conf","description":"","link":"http://frontenddesignconference.com/","icon":"buildright","startDate":1432080000000,"startDateText":"5/20/2015","endDate":1432252800000,"endDateText":"5/22/2015","city":"St. Petersburg","state":"FL","country":"United States","coordinates":[-82.64,27.773056],"speakers":["@a_simpson","@dflynn15"],"attendees":[]},{"title":"GIANT Conf","description":"A conference for people who do rad work.","link":"http://2015.giantconf.com/","icon":"buildright","startDate":1434240000000,"startDateText":"6/14/2015","endDate":1434499200000,"endDateText":"6/17/2015","city":"Charleston","state":"SC","country":"United States","coordinates":[-79.93105120000001,32.7764749],"speakers":["@a_simpson","@dflynn15"],"attendees":[]}]